{"generated":"2026-06-28T03:35:37.954Z","count":198,"stations":[{"id":71082606,"lat":32.7097613,"lon":35.1434194,"name":"דלק 7513, מועצה אזורית עמק יזרעאל","addr":"7513, מועצה אזורית עמק יזרעאל"},{"id":211666196,"lat":32.1610411,"lon":34.81082,"name":"דלק שדרות אבא אבן, הרצליה","addr":"שדרות אבא אבן, הרצליה"},{"id":267611881,"lat":31.7581841,"lon":34.7835492,"name":"דלק 3;40, מועצה אזורית יואב","addr":"3;40, מועצה אזורית יואב"},{"id":268181992,"lat":32.2829826,"lon":34.8577479,"name":"דלק כביש החוף, נתניה","addr":"כביש החוף, נתניה"},{"id":269460528,"lat":32.5905742,"lon":34.9364722,"name":"דלק 67, זכרון יעקב","addr":"67, זכרון יעקב"},{"id":270291020,"lat":32.4388805,"lon":34.8908124,"name":"דלק כביש החוף, חדרה","addr":"כביש החוף, חדרה"},{"id":293107733,"lat":32.0867345,"lon":34.8116303,"name":"דלק זאב ז'בוטינסקי, רמת גן","addr":"זאב ז'בוטינסקי, רמת גן"},{"id":293479997,"lat":32.0351915,"lon":35.013531,"name":"דלק Rantees, רנתיס","addr":"Rantees, רנתיס"},{"id":295868480,"lat":32.2544771,"lon":34.8729798,"name":"דלק 553, תל יצחק","addr":"553, תל יצחק"},{"id":307507866,"lat":32.3229614,"lon":34.8749197,"name":"דלק הקדר, נתניה","addr":"הקדר, נתניה"},{"id":330232401,"lat":32.5703068,"lon":35.1828374,"name":"דלק ואדי עארה, מועצה אזורית מגידו","addr":"ואדי עארה, מועצה אזורית מגידו"},{"id":331198434,"lat":32.1048496,"lon":34.7925821,"name":"דלק דרך נמיר, תל־אביב–יפו","addr":"דרך נמיר, תל־אביב–יפו"},{"id":331345539,"lat":32.9903578,"lon":35.5623562,"name":"דלק 91, מועצה אזורית גליל עליון","addr":"91, מועצה אזורית גליל עליון"},{"id":335850954,"lat":32.6067017,"lon":35.3000133,"name":"דלק חרוד, עפולה","addr":"חרוד, עפולה"},{"id":338274041,"lat":32.9859778,"lon":35.7081125,"name":"דלק 9088, קצרין","addr":"9088, קצרין"},{"id":340451789,"lat":32.2775845,"lon":34.86106,"name":"דלק האומנות, נתניה","addr":"האומנות, נתניה"},{"id":349065695,"lat":31.8151833,"lon":34.9194134,"name":"דלק 44, מועצה אזורית מטה יהודה","addr":"44, מועצה אזורית מטה יהודה"},{"id":353187359,"lat":32.3172132,"lon":34.8474427,"name":"דלק בן גוריון, נתניה","addr":"בן גוריון, נתניה"},{"id":359746901,"lat":31.6072676,"lon":34.8921704,"name":"דלק 3538, מועצה אזורית יואב","addr":"3538, מועצה אזורית יואב"},{"id":370251950,"lat":32.0905775,"lon":34.8732567,"name":"דלק זאב ז'בוטינסקי, פתח תקווה","addr":"זאב ז'בוטינסקי, פתח תקווה"},{"id":370552115,"lat":32.1742315,"lon":34.8914347,"name":"דלק הצומת, כפר סבא","addr":"הצומת, כפר סבא"},{"id":372887467,"lat":32.8449684,"lon":35.5164164,"name":"דלק 90, מועצה אזורית עמק הירדן","addr":"90, מועצה אזורית עמק הירדן"},{"id":372955252,"lat":32.8127304,"lon":34.9556891,"name":"דלק הצדף, חיפה","addr":"הצדף, חיפה"},{"id":392630216,"lat":31.2380147,"lon":34.7934785,"name":"דלק דרך חברון, באר-שבע","addr":"דרך חברון, באר-שבע"},{"id":401320820,"lat":32.4398701,"lon":34.9110921,"name":"דלק כביש חיפה רעננה, חדרה","addr":"כביש חיפה רעננה, חדרה"},{"id":406384993,"lat":32.0548461,"lon":35.4695393,"name":"דלק גנדי(זאבי)","addr":"גנדי(זאבי)"},{"id":410224072,"lat":32.0936528,"lon":34.9410584,"name":"דלק שדרות שלמה המלך, ראש העין","addr":"שדרות שלמה המלך, ראש העין"},{"id":410709344,"lat":31.8072232,"lon":34.7665527,"name":"דלק 40, גדרה","addr":"40, גדרה"},{"id":412184568,"lat":31.3049883,"lon":34.898581,"name":"דלק 60, מועצה אזורית בני שמעון","addr":"60, מועצה אזורית בני שמעון"},{"id":426934335,"lat":32.6798411,"lon":35.4096649,"name":"דלקנית","addr":"الشبلي-أم الغنم‎"},{"id":427127536,"lat":32.6429094,"lon":35.34867,"name":"דלק 65, מועצה אזורית בוסתן-אל-מרג'","addr":"65, מועצה אזורית בוסתן-אל-מרג'"},{"id":432245428,"lat":31.646289,"lon":35.1309347,"name":"דלק 367","addr":"367"},{"id":432292842,"lat":31.8042935,"lon":35.3257552,"name":"דלק 1, מעלה אדומים","addr":"1, מעלה אדומים"},{"id":432343066,"lat":31.7737013,"lon":35.5042015,"name":"דלק דרך ים המלח, מועצה אזורית מגילות ים המלח","addr":"דרך ים המלח, מועצה אזורית מגילות ים המלח"},{"id":441880610,"lat":31.148076,"lon":35.3699656,"name":"דלק 90, מועצה אזורית תמר","addr":"90, מועצה אזורית תמר"},{"id":442366007,"lat":31.8003767,"lon":34.7606781,"name":"דלק אדום, מועצה אזורית באר טוביה","addr":"אדום, מועצה אזורית באר טוביה"},{"id":442893138,"lat":32.074676,"lon":34.7958635,"name":"דלק יגאל אלון, תל־אביב–יפו","addr":"יגאל אלון, תל־אביב–יפו"},{"id":442893144,"lat":32.071439,"lon":34.7944917,"name":"דלק יגאל אלון, תל־אביב–יפו","addr":"יגאל אלון, תל־אביב–יפו"},{"id":483547180,"lat":32.3228009,"lon":34.8788144,"name":"דלק הקדר, נתניה","addr":"הקדר, נתניה"},{"id":495941884,"lat":32.8614462,"lon":35.6515002,"name":"דלק 92, מועצה אזורית גולן","addr":"92, מועצה אזורית גולן"},{"id":509261676,"lat":32.5083459,"lon":35.4483555,"name":"דלק 669, מועצה אזורית עמק המעיינות","addr":"669, מועצה אזורית עמק המעיינות"},{"id":519487420,"lat":32.9849526,"lon":35.3266544,"name":"ديليك","addr":"البقيعة"},{"id":519663858,"lat":33.0150734,"lon":35.1608704,"name":"דלק 89, מועצה אזורית מטה אשר","addr":"89, מועצה אזורית מטה אשר"},{"id":519682717,"lat":32.9871794,"lon":35.2602456,"name":"ديليك","addr":"يانوح جت"},{"id":519712282,"lat":33.021469,"lon":35.2622497,"name":"ديليك","addr":"معليا"},{"id":540381330,"lat":30.6201307,"lon":35.195011,"name":"דלק הערבה, מועצה אזורית הערבה התיכונה","addr":"הערבה, מועצה אזורית הערבה התיכונה"},{"id":540395569,"lat":31.0639375,"lon":35.0169975,"name":"דלק הפועלים, דימונה","addr":"הפועלים, דימונה"},{"id":550006924,"lat":32.8006453,"lon":35.0145549,"name":"דלק מטרונית, חיפה","addr":"מטרונית, חיפה"},{"id":560365643,"lat":31.758197,"lon":35.21492,"name":"דלק פייר קניג 2, ירושלים","addr":"פייר קניג 2, ירושלים"},{"id":566629370,"lat":32.1717892,"lon":34.8526421,"name":"דלק ירושלים, הרצליה","addr":"ירושלים, הרצליה"},{"id":575327048,"lat":31.8007914,"lon":35.2420393,"name":"דלק לוחמי הגטאות, ירושלים","addr":"לוחמי הגטאות, ירושלים"},{"id":586574329,"lat":32.0511936,"lon":34.9043541,"name":"דלק התמר, מגשימים","addr":"התמר, מגשימים"},{"id":595414139,"lat":31.0041459,"lon":34.7723995,"name":"דלק 40, מועצה אזורית רמת נגב","addr":"40, מועצה אזורית רמת נגב"},{"id":603763402,"lat":31.5585465,"lon":34.6346858,"name":"דלק 3525, מועצה אזורית שער הנגב","addr":"3525, מועצה אזורית שער הנגב"},{"id":620530050,"lat":32.1091141,"lon":34.9624398,"name":"דלק עבד אל כרים קאסם, כפר קאסם","addr":"עבד אל כרים קאסם, כפר קאסם"},{"id":666280900,"lat":30.8744592,"lon":34.7870266,"name":"דלק שביל אופניים - שדה בוקר מדרשה, מועצה אזורית רמת נגב","addr":"שביל אופניים - שדה בוקר מדרשה, מועצה אזורית רמת נגב"},{"id":666335433,"lat":30.6124193,"lon":34.8048488,"name":"דלק 40, מצפה רמון","addr":"40, מצפה רמון"},{"id":673368803,"lat":30.9851642,"lon":35.3075687,"name":"דלק הערבה, מועצה אזורית תמר","addr":"הערבה, מועצה אזורית תמר"},{"id":679185899,"lat":31.7272375,"lon":34.7501845,"name":"דלק ניר, מועצה אזורית באר טוביה","addr":"ניר, מועצה אזורית באר טוביה"},{"id":679447355,"lat":33.2294315,"lon":35.7561405,"name":"דלק 98, מסעדה","addr":"98, מסעדה"},{"id":681526566,"lat":32.0042238,"lon":34.8184986,"name":"דלק השבעה, ראשון לציון","addr":"השבעה, ראשון לציון"},{"id":687828850,"lat":32.8132042,"lon":34.9811692,"name":"דלק שדרות הנשיא, חיפה","addr":"שדרות הנשיא, חיפה"},{"id":690619657,"lat":32.7873437,"lon":34.9587083,"name":"דלק הרכס, חיפה","addr":"הרכס, חיפה"},{"id":691192901,"lat":32.6373626,"lon":35.3445899,"name":"ديليك","addr":"نين"},{"id":695145461,"lat":31.6198563,"lon":34.5798293,"name":"דלק 4, מועצה אזורית חוף אשקלון","addr":"4, מועצה אזורית חוף אשקלון"},{"id":700456015,"lat":31.9394257,"lon":34.7793673,"name":"דלק 42","addr":"42"},{"id":706751569,"lat":31.9223656,"lon":34.7984973,"name":"דלק החרש, נס ציונה","addr":"החרש, נס ציונה"},{"id":712767592,"lat":31.757479,"lon":35.1982511,"name":"דלק הרב הרצוג, ירושלים","addr":"הרב הרצוג, ירושלים"},{"id":729792095,"lat":32.9824554,"lon":35.5572666,"name":"דלק 90, חצור הגלילית","addr":"90, חצור הגלילית"},{"id":767407550,"lat":32.1556616,"lon":34.9203496,"name":"דלק מבוא קדם, הוד השרון","addr":"מבוא קדם, הוד השרון"},{"id":773003998,"lat":32.5281968,"lon":35.3369526,"name":"דלק שקד, מועצה אזורית גלבוע","addr":"שקד, מועצה אזורית גלבוע"},{"id":774705923,"lat":32.1714487,"lon":34.9244734,"name":"דלק התע\"ש, כפר סבא","addr":"התע\"ש, כפר סבא"},{"id":795929939,"lat":32.0766261,"lon":34.844838,"name":"דלק רחבעם זאבי, גבעת שמואל","addr":"רחבעם זאבי, גבעת שמואל"},{"id":817837597,"lat":32.9143689,"lon":35.1910866,"name":"דלק 85, מג'ד אל כרום","addr":"85, מג'ד אל כרום"},{"id":824789674,"lat":32.9761584,"lon":35.5901147,"name":"דלק 8677, טובא זנגריה","addr":"8677, טובא זנגריה"},{"id":825156570,"lat":33.2066472,"lon":35.5700702,"name":"דלק תל חי, קרית שמונה","addr":"תל חי, קרית שמונה"},{"id":831462193,"lat":31.804468,"lon":35.0924984,"name":"דלק 4115, מועצה אזורית מטה יהודה","addr":"4115, מועצה אזורית מטה יהודה"},{"id":837348130,"lat":32.0401802,"lon":34.8226657,"name":"דלק דרך לוד, תל־אביב–יפו","addr":"דרך לוד, תל־אביב–יפו"},{"id":893974051,"lat":32.8162048,"lon":35.0016858,"name":"דלק נתנזון, חיפה","addr":"נתנזון, חיפה"},{"id":900602386,"lat":32.4354278,"lon":34.9103246,"name":"דלק שז\"ר זלמן, חדרה","addr":"שז\"ר זלמן, חדרה"},{"id":918048525,"lat":32.8009744,"lon":35.0148023,"name":"דלק מד' ג'ובראן, סלים, חיפה","addr":"מד' ג'ובראן, סלים, חיפה"},{"id":924507225,"lat":31.9916294,"lon":34.7754753,"name":"דלק לזרוב, ראשון לציון","addr":"לזרוב, ראשון לציון"},{"id":925071087,"lat":33.0619152,"lon":35.2141725,"name":"דלק ביטחון, מועצה אזורית מטה אשר","addr":"ביטחון, מועצה אזורית מטה אשר"},{"id":925073215,"lat":33.076033,"lon":35.1417946,"name":"דלק כביש הצפון, שלומי","addr":"כביש הצפון, שלומי"},{"id":925551615,"lat":32.6963014,"lon":35.052838,"name":"דלק אלכרמל, דלית אל-כרמל","addr":"אלכרמל, דלית אל-כרמל"},{"id":934816976,"lat":32.7888445,"lon":35.0027635,"name":"דלק נחל גיבורים, חיפה","addr":"נחל גיבורים, חיפה"},{"id":957267380,"lat":32.5713586,"lon":34.938047,"name":"דלק שדרות ניל\"י, מועצה אזורית חוף הכרמל","addr":"שדרות ניל\"י, מועצה אזורית חוף הכרמל"},{"id":977670827,"lat":31.8846657,"lon":34.8160062,"name":"דלק האמוראים, רחובות","addr":"האמוראים, רחובות"},{"id":984578618,"lat":32.0536195,"lon":34.8124756,"name":"דלק שלם 1","addr":"שלם 1"},{"id":1011094362,"lat":31.2200108,"lon":34.8029481,"name":"דלק תוצרת הארץ, באר-שבע","addr":"תוצרת הארץ, באר-שבע"},{"id":1015855478,"lat":32.7767834,"lon":35.4134837,"name":"דלק 77, מועצה אזורית גליל תחתון","addr":"77, מועצה אזורית גליל תחתון"},{"id":1015855507,"lat":32.7771176,"lon":35.4127327,"name":"דלק 77, מועצה אזורית גליל תחתון","addr":"77, מועצה אזורית גליל תחתון"},{"id":1059893313,"lat":32.030098,"lon":34.795639,"name":"דלק השבעה 19, אזור","addr":"השבעה 19, אזור"},{"id":1059968394,"lat":32.021606,"lon":34.7979002,"name":"דלק הפלד, חולון","addr":"הפלד, חולון"},{"id":1060395506,"lat":32.0007404,"lon":34.7641883,"name":"דלק משה דיין, חולון","addr":"משה דיין, חולון"},{"id":1094935022,"lat":29.5616756,"lon":34.9381913,"name":"דלק יהל, אילת","addr":"יהל, אילת"},{"id":1110742309,"lat":32.0850149,"lon":34.8563234,"name":"דלק ורדינון אליעזר, פתח תקווה","addr":"ורדינון אליעזר, פתח תקווה"},{"id":1120022438,"lat":32.03291,"lon":34.774955,"name":"דלק שערי חולון","addr":"שדרות לוי אשכול"},{"id":1221128189,"lat":32.0153172,"lon":34.8077397,"name":"דלק המרכבה, חולון","addr":"המרכבה, חולון"},{"id":1229710123,"lat":32.9262088,"lon":35.3253746,"name":"דלק מעלה כמון, כרמיאל","addr":"מעלה כמון, כרמיאל"},{"id":1252167971,"lat":32.9479153,"lon":35.1645106,"name":"ديليك","addr":"كفر ياسيف"},{"id":1256074945,"lat":31.9835746,"lon":34.8112413,"name":"דלק טוליפמן 1","addr":"טוליפמן 1"},{"id":1293805293,"lat":31.9888408,"lon":34.7651388,"name":"דלק יוסף לישנסקי, ראשון לציון","addr":"יוסף לישנסקי, ראשון לציון"},{"id":1315999222,"lat":32.991416,"lon":35.0961199,"name":"דלק אירית, נהריה","addr":"אירית, נהריה"},{"id":1318515772,"lat":32.778572,"lon":35.4999307,"name":"דלק הפנס, טבריה","addr":"הפנס, טבריה"},{"id":1328539267,"lat":31.7736712,"lon":35.503974,"name":"דלק דרך ים המלח, מועצה אזורית מגילות ים המלח","addr":"דרך ים המלח, מועצה אזורית מגילות ים המלח"},{"id":1331275924,"lat":32.6544718,"lon":35.1174565,"name":"דלק העמק, מועצה אזורית מגידו","addr":"העמק, מועצה אזורית מגידו"},{"id":1398556168,"lat":31.7666472,"lon":35.2040041,"name":"דלק מנדל (ישראל) קפלן, ירושלים","addr":"מנדל (ישראל) קפלן, ירושלים"},{"id":1450747722,"lat":31.9792129,"lon":34.8102971,"name":"דלק משה בקר, ראשון לציון","addr":"משה בקר, ראשון לציון"},{"id":1516968443,"lat":31.7611279,"lon":34.6685682,"name":"דלק 3717, מועצה אזורית באר טוביה","addr":"3717, מועצה אזורית באר טוביה"},{"id":1522094151,"lat":32.2889908,"lon":34.8642623,"name":"דלק הגביש, נתניה","addr":"הגביש, נתניה"},{"id":1538490506,"lat":32.2467229,"lon":34.9938301,"name":"דלק 444, טייבה","addr":"444, טייבה"},{"id":1538490512,"lat":32.2705116,"lon":35.0031417,"name":"דלק 444, טייבה","addr":"444, טייבה"},{"id":1538492620,"lat":32.2318481,"lon":34.9815547,"name":"דלק 554","addr":"554"},{"id":1622283334,"lat":32.0826269,"lon":34.8022711,"name":"דלק זאב ז'בוטינסקי 4","addr":"זאב ז'בוטינסקי 4"},{"id":1643329748,"lat":32.6024402,"lon":35.0179378,"name":"דלק ואדי מילק, מועצה אזורית חוף הכרמל","addr":"ואדי מילק, מועצה אזורית חוף הכרמל"},{"id":1716547887,"lat":32.0328186,"lon":34.7512374,"name":"דלק שדרות ירושלים 210","addr":"שדרות ירושלים 210"},{"id":1798702766,"lat":31.5889927,"lon":34.758219,"name":"דלק 40, קרית גת","addr":"40, קרית גת"},{"id":1799625706,"lat":31.6513869,"lon":34.7670698,"name":"דלק 353, מועצה אזורית לכיש","addr":"353, מועצה אזורית לכיש"},{"id":1811734367,"lat":32.9308846,"lon":35.3679848,"name":"ديليك","addr":"الرامة"},{"id":1827404717,"lat":32.5330127,"lon":35.319322,"name":"דלק 60, מועצה אזורית גלבוע","addr":"60, מועצה אזורית גלבוע"},{"id":1829508131,"lat":31.7199974,"lon":35.1027595,"name":"דלק 375, צור הדסה","addr":"375, צור הדסה"},{"id":1905958399,"lat":32.2202462,"lon":34.8287651,"name":"דלק 5514","addr":"5514"},{"id":1911081889,"lat":32.0544345,"lon":34.7794527,"name":"דלק קומה 6, תל־אביב–יפו","addr":"קומה 6, תל־אביב–יפו"},{"id":1919774738,"lat":31.2670202,"lon":34.7932972,"name":"דלק אברהם אבינו, באר שבע","addr":"אברהם אבינו, באר שבע"},{"id":2105772036,"lat":32.0572923,"lon":34.7591944,"name":"דלק אליזבת ברגנר, תל־אביב–יפו","addr":"אליזבת ברגנר, תל־אביב–יפו"},{"id":2139392185,"lat":32.8302406,"lon":34.9775128,"name":"דלק ההגנה, חיפה","addr":"ההגנה, חיפה"},{"id":2165711924,"lat":32.7920033,"lon":35.5363109,"name":"דלק אלחדיף, טבריה","addr":"אלחדיף, טבריה"},{"id":2218455653,"lat":32.0942323,"lon":34.8556093,"name":"דלק המפעלים, פתח תקווה","addr":"המפעלים, פתח תקווה"},{"id":2229042031,"lat":31.525612,"lon":34.5812831,"name":"דלק 34, מועצה אזורית שער הנגב","addr":"34, מועצה אזורית שער הנגב"},{"id":2246706285,"lat":32.8757159,"lon":35.0961311,"name":"דלק 4, מועצה אזורית מטה אשר","addr":"4, מועצה אזורית מטה אשר"},{"id":2291608052,"lat":32.4920154,"lon":35.0811522,"name":"ديليك","addr":"عرعرة"},{"id":2352596648,"lat":31.8095135,"lon":34.6583862,"name":"דלק דוד בן גוריון, אשדוד","addr":"דוד בן גוריון, אשדוד"},{"id":2470368756,"lat":29.5730963,"lon":34.9637544,"name":"דלק Carmel, אילת","addr":"Carmel, אילת"},{"id":2679341173,"lat":32.4370239,"lon":35.0266458,"name":"דלק 5923, מועצה אזורית מנשה","addr":"5923, מועצה אזורית מנשה"},{"id":2701152030,"lat":31.8902579,"lon":34.9673597,"name":"דלק המלאכות, מודיעין-מכבים-רעות","addr":"המלאכות, מודיעין-מכבים-רעות"},{"id":2828918973,"lat":31.9234442,"lon":34.9665688,"name":"דלק המעיין, מודיעין-מכבים-רעות","addr":"המעיין, מודיעין-מכבים-רעות"},{"id":2939671624,"lat":32.7070422,"lon":35.1740146,"name":"דלק אקליפטוס, רמת ישי","addr":"אקליפטוס, רמת ישי"},{"id":2939671626,"lat":32.7064828,"lon":35.1722402,"name":"דלק האלון, רמת ישי","addr":"האלון, רמת ישי"},{"id":3001098910,"lat":32.8608858,"lon":35.4613625,"name":"דלק 807, מגדל","addr":"807, מגדל"},{"id":3492923309,"lat":31.7753329,"lon":34.6630739,"name":"דלק דרך הרכבת, אשדוד","addr":"דרך הרכבת, אשדוד"},{"id":3691498201,"lat":32.6918948,"lon":35.0644347,"name":"דלק חיפה, דלית אל-כרמל","addr":"חיפה, דלית אל-כרמל"},{"id":3778692041,"lat":31.8875253,"lon":34.7345763,"name":"דלק שדרות הסנהדרין, יבנה","addr":"שדרות הסנהדרין, יבנה"},{"id":4351630673,"lat":31.4252356,"lon":34.6008637,"name":"דלק שדרות ירושלים 2, נתיבות","addr":"שדרות ירושלים 2, נתיבות"},{"id":4976036858,"lat":31.872647,"lon":35.2598571,"name":"דלק 4578, מ.פ. קלנדיה","addr":"4578, מ.פ. קלנדיה"},{"id":5022639237,"lat":31.3260285,"lon":34.9246373,"name":"דלק מיתר","addr":"מיתר"},{"id":5024239062,"lat":31.7912994,"lon":35.1422712,"name":"דלק שדרות החוצבים, מבשרת ציון","addr":"שדרות החוצבים, מבשרת ציון"},{"id":5598363159,"lat":32.7793043,"lon":35.4991307,"name":"דלק הפנס, טבריה","addr":"הפנס, טבריה"},{"id":5988521731,"lat":32.929517,"lon":35.2993916,"name":"דלק 854, נחף","addr":"854, נחף"},{"id":6438000168,"lat":33.0251457,"lon":35.2341615,"name":"דלק 89, מועצה אזורית מטה אשר","addr":"89, מועצה אזורית מטה אשר"},{"id":6577194367,"lat":31.9204939,"lon":35.0076054,"name":"דלק 443, כפר רות","addr":"443, כפר רות"},{"id":6700001988,"lat":32.0977576,"lon":35.1230864,"name":"דלק יסמין 4, אריאל","addr":"יסמין 4, אריאל"},{"id":7385889607,"lat":32.9878098,"lon":35.4424429,"name":"דלק 866, מועצה אזורית מרום הגליל","addr":"866, מועצה אזורית מרום הגליל"},{"id":8575633919,"lat":32.8083608,"lon":35.0597118,"name":"דלק השיש, חיפה","addr":"השיש, חיפה"},{"id":9120709125,"lat":32.3015786,"lon":34.982107,"name":"דלק 5614, קלנסווה","addr":"5614, קלנסווה"},{"id":9918951392,"lat":32.0048834,"lon":34.8010814,"name":"דלק שדרות ירושלים, חולון","addr":"שדרות ירושלים, חולון"},{"id":11843548619,"lat":31.7523244,"lon":35.2350786,"name":"דלק דב גרונר, ירושלים","addr":"דב גרונר, ירושלים"},{"id":11987402409,"lat":32.0956244,"lon":34.8249984,"name":"דלק הירקון, בני ברק","addr":"הירקון, בני ברק"},{"id":12947420789,"lat":31.8586106,"lon":34.816722,"name":"דלק 411, קרית עקרון","addr":"411, קרית עקרון"},{"id":13195184901,"lat":31.7461263,"lon":35.2130041,"name":"תחנת דלק סונול","addr":"האומן 1"},{"id":100006749,"lat":32.1322716,"lon":34.8322172,"name":"דלק משה סנה, רמת השרון","addr":"משה סנה, רמת השרון"},{"id":191475312,"lat":32.8170141,"lon":35.0613107,"name":"דלק תובל, חיפה","addr":"תובל, חיפה"},{"id":193995865,"lat":32.77325,"lon":35.0445187,"name":"דלק דרך בר יהודה, נשר","addr":"דרך בר יהודה, נשר"},{"id":194003787,"lat":32.7945262,"lon":35.0418945,"name":"דלק שדרות ההסתדרות, חיפה","addr":"שדרות ההסתדרות, חיפה"},{"id":221000335,"lat":32.6385954,"lon":35.3441974,"name":"ديليك","addr":"نين"},{"id":235184939,"lat":31.7966386,"lon":34.6526954,"name":"דלק שדרות בני ברית, אשדוד","addr":"שדרות בני ברית, אשדוד"},{"id":237392391,"lat":32.194092,"lon":34.8829746,"name":"דלק זרחין, רעננה","addr":"זרחין, רעננה"},{"id":238587178,"lat":32.459486,"lon":34.9651201,"name":"דלק פיק\"א, פרדס חנה - כרכור","addr":"פיק\"א, פרדס חנה - כרכור"},{"id":256680190,"lat":31.2445288,"lon":34.8075786,"name":"דלק פנחס החוצב, באר-שבע","addr":"פנחס החוצב, באר-שבע"},{"id":256757942,"lat":32.9682667,"lon":35.5493399,"name":"דלק הגליל, ראש פינה","addr":"הגליל, ראש פינה"},{"id":294384445,"lat":32.8271381,"lon":35.0613242,"name":"דלק שדרות דגניה, חיפה","addr":"שדרות דגניה, חיפה"},{"id":295008270,"lat":32.801633,"lon":35.0517173,"name":"דלק שדרות ההסתדרות, חיפה","addr":"שדרות ההסתדרות, חיפה"},{"id":362399252,"lat":31.2519824,"lon":34.8200278,"name":"דלק חברון 10","addr":"חברון 10"},{"id":362814796,"lat":31.2439145,"lon":34.7971931,"name":"דלק יצחק בן צבי, באר-שבע","addr":"יצחק בן צבי, באר-שבע"},{"id":375493928,"lat":32.0352197,"lon":35.0136541,"name":"דלק חוצה בנימין","addr":"חוצה בנימין"},{"id":380204496,"lat":32.1517384,"lon":34.8949378,"name":"דלק רמתיים","addr":"דרך רמתיים 89, הוד השרון"},{"id":394589795,"lat":32.1910708,"lon":34.8450538,"name":"דלק שדרות ויצמן, רעננה","addr":"שדרות ויצמן, רעננה"},{"id":414380720,"lat":32.1064504,"lon":34.9555809,"name":"ديليك","addr":"كفر قاسم‎"},{"id":459453215,"lat":32.9618466,"lon":35.4871089,"name":"דלק 89, צפת","addr":"89, צפת"},{"id":494479563,"lat":32.1456627,"lon":34.9523821,"name":"ديليك","addr":"جلجولية"},{"id":531196527,"lat":32.1326726,"lon":34.8985407,"name":"הוד תדלוק","addr":"החרש 6, הוד השרון"},{"id":537430039,"lat":31.872686,"lon":35.2599179,"name":"דלק 4578, מ.פ. קלנדיה","addr":"4578, מ.פ. קלנדיה"},{"id":587761803,"lat":32.4409395,"lon":34.9106717,"name":"דלק יעקב דורי, חדרה","addr":"יעקב דורי, חדרה"},{"id":622890696,"lat":32.7010959,"lon":35.3182929,"name":"דלק מעלה יצחק, נוף הגליל","addr":"מעלה יצחק, נוף הגליל"},{"id":639130874,"lat":31.6034386,"lon":34.7730119,"name":"דלק הדרום, קרית גת","addr":"הדרום, קרית גת"},{"id":722323594,"lat":32.0977637,"lon":35.1229933,"name":"דלק יסמין, אריאל","addr":"יסמין, אריאל"},{"id":789965656,"lat":32.904469,"lon":35.5222744,"name":"דלק 85, מועצה אזורית מבואות החרמון","addr":"85, מועצה אזורית מבואות החרמון"},{"id":789977525,"lat":32.9713515,"lon":35.5053287,"name":"דלק הגליל, צפת","addr":"הגליל, צפת"},{"id":804894775,"lat":31.2438141,"lon":34.8097552,"name":"דלק אליהו נאוי, באר-שבע","addr":"אליהו נאוי, באר-שבע"},{"id":822806822,"lat":32.794709,"lon":35.101663,"name":"דלק העצמאות, קרית אתא","addr":"העצמאות, קרית אתא"},{"id":933305168,"lat":33.0221881,"lon":35.3289357,"name":"דלק 89, חורפיש","addr":"89, חורפיש"},{"id":966300270,"lat":31.3376785,"lon":34.6528225,"name":"דלק 241, מועצה אזורית מרחבים","addr":"241, מועצה אזורית מרחבים"},{"id":967669258,"lat":32.1637814,"lon":34.8224749,"name":"דלק בן ציון מיכאלי, הרצליה","addr":"בן ציון מיכאלי, הרצליה"},{"id":982177485,"lat":32.2559507,"lon":34.8773749,"name":"דלק 553, אבן יהודה","addr":"553, אבן יהודה"},{"id":1021106744,"lat":32.1854261,"lon":34.8537092,"name":"דלק הפארק, רעננה","addr":"הפארק, רעננה"},{"id":1051434672,"lat":31.7842166,"lon":35.1172089,"name":"דלק דרך ביטחון, מועצה אזורית מטה יהודה","addr":"דרך ביטחון, מועצה אזורית מטה יהודה"},{"id":1120210985,"lat":32.4354616,"lon":34.9103318,"name":"דלק שז\"ר זלמן, חדרה","addr":"שז\"ר זלמן, חדרה"},{"id":1361184519,"lat":32.2510374,"lon":34.8906574,"name":"דלק כביש חיפה רעננה","addr":"כביש חיפה רעננה"}]}